City_ID,City,Country,Lat,Lng,Max Temp,Humidity,Cloudiness,Wind Speed,Current Description
0,Belyy Yar,RU,53.6039,91.3903,71.49,73,7,4.47,clear sky
1,Mataura,NZ,-46.1927,168.8643,32.49,99,99,3.06,light snow
2,Vaini,TO,-21.2,-175.2,60.96,94,20,1.14,few clouds
3,Longyearbyen,SJ,78.2186,15.6401,44.44,81,20,9.22,few clouds
4,Khatanga,RU,71.9667,102.5,59.61,57,100,15.82,overcast clouds
5,Tuktoyaktuk,CA,69.4541,-133.0374,41.76,80,100,11.74,overcast clouds
6,Mahebourg,MU,-20.4081,57.7,72.25,85,79,18.57,moderate rain
7,Mocuba,MZ,-16.8392,36.9856,83.73,29,0,7.92,clear sky
8,Cayenne,GF,4.9333,-52.3333,87.1,73,75,1.99,broken clouds
9,Ribeira Grande,PT,38.5167,-28.7,75.6,60,20,17.27,few clouds
10,Samarai,PG,-10.6167,150.6667,78.08,82,100,17.83,overcast clouds
11,Huarmey,PE,-10.0681,-78.1522,63.64,83,69,6.51,broken clouds
12,Cap Malheureux,MU,-19.9842,57.6142,72.46,81,69,5.01,moderate rain
13,Rikitea,PF,-23.1203,-134.9692,74.93,70,78,13.09,broken clouds
14,Barrow,US,71.2906,-156.7887,37.42,94,90,9.22,overcast clouds
15,Atuona,PF,-9.8,-139.0333,76.91,81,64,13.33,moderate rain
16,Guerrero Negro,MX,27.9769,-114.0611,69.26,85,5,10.54,clear sky
17,Kapaa,US,22.0752,-159.319,79.12,64,20,12.66,few clouds
18,Ushuaia,AR,-54.8,-68.3,29.35,90,86,5.95,overcast clouds
19,Opunake,NZ,-39.4556,173.8583,42.33,88,100,31.94,light rain
20,Atherton,GB,53.5237,-2.4935,65.44,85,100,11.01,overcast clouds
21,Mehamn,NO,71.0357,27.8492,67.96,48,11,10.96,few clouds
22,Banyo,CM,6.75,11.8167,69.08,88,100,0.87,overcast clouds
23,Saskylakh,RU,71.9167,114.0833,64.44,56,98,12.44,overcast clouds
24,Itarema,BR,-2.9248,-39.9167,86.52,43,0,16.55,clear sky
25,Aklavik,CA,68.2191,-135.0107,38.23,89,7,3.36,clear sky
26,Port Alfred,ZA,-33.5906,26.891,81.66,31,39,6.44,scattered clouds
27,Tilichiki,RU,60.4667,166.1,44.98,77,100,6.89,overcast clouds
28,Albany,US,42.6001,-73.9662,74.71,87,100,4.25,overcast clouds
29,Salalah,OM,17.0151,54.0924,78.89,89,90,11.5,overcast clouds
30,Chengde,CN,40.9725,117.9361,72.81,84,100,2.19,overcast clouds
31,Jalu,LY,29.0331,21.5482,101.61,16,0,8.19,clear sky
32,Lorengau,PG,-2.0226,147.2712,81.14,79,36,11.27,scattered clouds
33,Avarua,CK,-21.2078,-159.775,73.45,78,75,4.61,broken clouds
34,Provideniya,RU,64.3833,-173.3,44.26,88,100,13.53,overcast clouds
35,Te Anau,NZ,-45.4167,167.7167,31.51,97,92,2.28,light snow
36,Vanimo,PG,-2.6741,141.3028,77.92,88,100,7.25,overcast clouds
37,Ketchikan,US,55.3422,-131.6461,61.27,82,90,6.91,overcast clouds
38,Kodiak,US,57.79,-152.4072,52.61,97,100,5.57,light rain
39,Ilovlya,RU,49.3033,43.9796,96.1,15,100,14.36,light rain
40,Hailar,CN,49.2,119.7,67.71,72,100,6.31,light rain
41,Upernavik,GL,72.7868,-56.1549,37.58,87,68,6.2,broken clouds
42,Bandraboua,YT,-12.7044,45.1223,78.48,61,0,6.13,clear sky
43,Leshukonskoye,RU,64.8989,45.7622,69.31,37,100,4.72,overcast clouds
44,Fortuna,US,40.5982,-124.1573,62.42,70,90,1.99,overcast clouds
45,Ankang,CN,32.68,109.0172,68.65,98,100,0.65,light rain
46,Punta Arenas,CL,-53.15,-70.9167,39.31,81,40,16.11,scattered clouds
47,Portland,US,45.5234,-122.6762,59.9,82,18,2.24,few clouds
48,Buala,SB,-8.145,159.5921,78.57,80,95,0.29,overcast clouds
49,Cape Town,ZA,-33.9258,18.4232,63.1,76,100,8.99,light rain
50,Zhangjiakou,CN,40.81,114.8794,68.72,80,100,4.88,light rain
51,Leningradskiy,RU,69.3833,178.4167,35.49,84,24,14.74,few clouds
52,Halifax,CA,44.6453,-63.5724,72.52,88,100,2.3,overcast clouds
53,San Vicente,AR,-26.6167,-54.1333,73.54,40,0,6.26,clear sky
54,Hermanus,ZA,-34.4187,19.2345,63.81,61,100,25.55,overcast clouds
55,Hilo,US,19.7297,-155.09,73.13,85,90,8.05,overcast clouds
56,Lebu,CL,-37.6167,-73.65,46.13,75,99,13.15,overcast clouds
57,Srednekolymsk,RU,67.45,153.6833,52.45,75,4,4.54,clear sky
58,Ancud,CL,-41.8697,-73.8203,42.22,84,1,6.17,clear sky
59,New Norfolk,AU,-42.7826,147.0587,45.9,77,19,3.0,few clouds
60,Ormara,PK,25.2088,64.6357,81.12,81,34,13.87,scattered clouds
61,Marawi,PH,7.9986,124.2928,68.65,95,100,2.24,overcast clouds
62,Deputatskiy,RU,69.3,139.9,51.58,75,89,2.73,overcast clouds
63,Nuristan,AF,35.3,70.8333,54.37,57,61,1.39,broken clouds
64,Busselton,AU,-33.65,115.3333,58.08,80,7,25.39,clear sky
65,Saint George,US,37.1041,-113.5841,80.55,28,1,0.0,clear sky
66,Maumere,ID,-8.6199,122.2111,75.96,79,9,6.73,clear sky
67,Beloha,MG,-25.1667,45.05,75.78,42,0,11.97,clear sky
68,Castro,BR,-24.7911,-50.0119,63.75,66,3,5.57,clear sky
69,Egvekinot,RU,66.3167,-179.1667,37.06,74,3,13.09,clear sky
70,Bambanglipuro,ID,-7.95,110.2833,77.61,86,45,6.93,scattered clouds
71,San Cristobal,VE,7.7669,-72.225,66.38,73,100,1.1,overcast clouds
72,Airai,TL,-8.9266,125.4092,55.58,89,84,3.09,broken clouds
73,Bredasdorp,ZA,-34.5322,20.0403,63.28,53,100,17.31,overcast clouds
74,Coffs Harbour,AU,-30.3,153.1333,58.14,88,90,6.91,overcast clouds
75,Svencionys,LT,55.15,26.1667,75.72,55,100,12.35,overcast clouds
76,East London,ZA,-33.0153,27.9116,82.9,28,2,5.12,clear sky
77,Shingu,JP,33.7333,135.9833,84.9,87,100,4.21,moderate rain
78,Walvis Bay,NA,-22.9575,14.5053,65.35,59,6,14.97,clear sky
79,Nikolskoye,RU,59.7035,30.7861,75.09,65,98,7.99,overcast clouds
80,Vao,NC,-22.6667,167.4833,67.24,68,39,15.84,scattered clouds
81,Itaituba,BR,-4.2761,-55.9836,87.96,62,0,0.0,clear sky
82,Lompoc,US,34.6391,-120.4579,59.56,99,90,3.44,mist
83,Vila Velha,BR,-20.3297,-40.2925,67.95,83,75,4.61,broken clouds
84,Kavieng,PG,-2.5744,150.7967,81.77,75,67,9.75,broken clouds
85,Usinsk,RU,65.9939,57.5281,55.0,79,100,8.34,overcast clouds
86,Uige,AO,-7.6087,15.0613,89.49,24,29,6.55,scattered clouds
87,Filadelfia,US,39.9523,-75.1638,74.14,86,40,8.99,scattered clouds
88,Poum,NC,-20.2333,164.0167,69.69,70,87,20.24,overcast clouds
89,Ostrovnoy,RU,68.0531,39.5131,65.32,55,31,11.59,scattered clouds
90,Pombas,CV,17.1503,-25.0201,80.38,91,49,12.44,scattered clouds
91,Xiuyan,CN,40.2928,123.2744,73.09,73,12,2.1,few clouds
92,College,US,64.8569,-147.8028,56.59,92,75,3.44,broken clouds
93,Namatanai,PG,-3.6667,152.4333,78.89,80,100,5.82,overcast clouds
94,Asau,RO,46.4333,26.4,89.4,34,56,3.6,broken clouds
95,Simao,CN,22.7886,100.9748,69.21,96,100,2.62,overcast clouds
96,Nalut,LY,30.3333,10.85,108.45,7,0,6.78,clear sky
97,Topeka,US,39.0483,-95.678,70.18,96,75,8.05,mist
98,Saint-Philippe,RE,-21.3585,55.7679,80.19,78,85,10.07,overcast clouds
99,Kaitangata,NZ,-46.2817,169.8464,34.86,94,99,7.18,light rain
100,Barma,SL,8.35,-11.3333,83.12,61,100,4.41,overcast clouds
101,Kargil,IN,34.5667,76.1,66.47,34,77,5.32,broken clouds
102,Paamiut,GL,61.994,-49.6678,42.85,88,99,9.71,overcast clouds
103,Shitanjing,CN,39.2342,106.3439,78.78,23,0,7.29,clear sky
104,Kruisfontein,ZA,-34.0033,24.7314,77.88,32,97,13.89,overcast clouds
105,Severnyy,RU,50.677,36.5532,87.84,35,0,8.95,clear sky
106,Bluff,NZ,-46.6,168.3333,32.81,69,48,13.73,light snow
107,Jacqueville,CI,5.2052,-4.4146,78.71,85,26,13.85,light rain
108,Comodoro Rivadavia,AR,-45.8667,-67.5,46.26,42,0,13.8,clear sky
109,Ponta Do Sol,PT,32.6667,-17.1,74.71,78,80,3.83,broken clouds
110,Isangel,VU,-19.55,169.2667,69.51,76,100,8.95,overcast clouds
111,Muisne,EC,0.6,-80.0333,75.31,84,100,9.26,overcast clouds
112,Torbay,CA,47.6666,-52.7314,71.49,92,90,17.27,light rain
113,Qaanaaq,GL,77.484,-69.3632,38.8,67,33,4.03,scattered clouds
114,Cherskiy,RU,68.75,161.3,49.33,62,11,5.23,few clouds
115,Kudat,MY,6.8837,116.8477,85.93,79,20,1.14,few clouds
116,Lokosovo,RU,61.1333,74.8167,74.93,64,75,6.11,broken clouds
117,Grindavik,IS,63.8424,-22.4338,62.56,67,75,14.97,broken clouds
118,Iguape,BR,-24.7081,-47.5553,66.45,77,22,2.01,few clouds
119,Port Elizabeth,ZA,-33.918,25.5701,80.1,34,56,8.61,broken clouds
120,Pathein,MM,16.7833,94.7333,81.1,85,98,6.55,overcast clouds
121,Masuguru,TZ,-11.3667,38.4167,91.8,22,17,4.03,few clouds
122,Saint-Augustin,CA,51.226,-58.6502,59.86,66,97,8.41,overcast clouds
123,Pasni,PK,25.2631,63.471,81.09,82,3,17.9,clear sky
124,Santa Rosa,PH,14.3122,121.1114,84.11,84,58,6.87,broken clouds
125,Katsuura,JP,35.1333,140.3,82.51,90,100,13.58,overcast clouds
126,Kortkeros,RU,61.8106,51.5806,68.0,38,96,5.48,overcast clouds
127,Severo-Kurilsk,RU,50.6789,156.125,53.29,78,97,10.0,overcast clouds
128,Butaritari,KI,3.0707,172.7902,82.49,64,11,10.09,few clouds
129,Kahului,US,20.8947,-156.47,75.22,82,75,12.66,broken clouds
130,Narsaq,GL,60.9167,-46.05,48.42,69,23,6.08,few clouds
131,Nanzhou,CN,29.3596,112.4024,81.54,88,100,6.44,light rain
132,Chokurdakh,RU,70.6333,147.9167,54.73,54,100,8.28,overcast clouds
133,Altamont,US,42.2068,-121.7372,58.39,85,1,4.61,clear sky
134,Morris,US,40.8334,-74.5329,71.71,86,75,1.01,broken clouds
135,Tuatapere,NZ,-46.1333,167.6833,32.83,91,97,1.34,light snow
136,Mount Isa,AU,-20.7333,139.5,53.37,40,0,0.0,clear sky
137,Dikson,RU,73.5069,80.5464,49.66,72,5,3.44,clear sky
138,Yellowknife,CA,62.456,-114.3525,43.79,65,45,8.61,scattered clouds
139,Esperance,AU,-33.8667,121.9,59.63,79,0,12.19,clear sky
140,Dingle,PH,10.9995,122.6711,77.83,90,100,5.21,light rain
141,Hobart,AU,-42.8794,147.3294,46.26,77,40,1.01,scattered clouds
142,Tual,ID,-5.6667,132.75,80.56,80,100,20.36,overcast clouds
143,Pitimbu,BR,-7.4706,-34.8086,81.19,67,93,17.27,overcast clouds
144,Geraldton,AU,-28.7667,114.6,64.81,94,40,13.8,scattered clouds
145,Bonthe,SL,7.5264,-12.505,82.76,64,95,9.82,overcast clouds
146,Huilong,CN,31.8111,121.655,85.03,78,0,6.89,clear sky
147,Arrifes,PT,37.7667,-25.7,73.65,53,75,9.22,broken clouds
148,Kavaratti,IN,10.5669,72.642,81.03,81,100,18.68,overcast clouds
149,Alofi,NU,-19.0595,-169.9187,73.72,72,93,13.18,overcast clouds
150,Kunming,CN,25.0389,102.7183,73.33,73,75,6.71,broken clouds
151,Fengrun,CN,39.8333,118.1167,77.14,82,98,1.25,light rain
152,North Bend,US,43.4065,-124.2243,56.91,100,1,0.0,clear sky
153,Zambrano,CO,9.7472,-74.8153,77.38,92,100,5.28,overcast clouds
154,Karratha,AU,-20.7377,116.8463,70.66,67,2,7.14,light rain
155,Rio Pomba,BR,-21.2747,-43.1792,68.58,76,100,1.23,overcast clouds
156,Shostka,UA,51.863,33.4698,80.02,45,0,7.31,clear sky
157,Seka,TH,17.9285,103.9552,84.15,72,100,2.93,overcast clouds
158,Mwinilunga,ZM,-11.7358,24.4293,85.93,13,20,6.4,few clouds
159,Victoria,HK,22.2855,114.1577,86.32,86,100,6.87,overcast clouds
160,Gubkinskiy,RU,64.434,76.5026,77.63,43,14,6.26,few clouds
161,Rehoboth,NA,-23.3167,17.0833,81.1,11,0,18.57,clear sky
162,Chapais,CA,49.7834,-74.8492,58.78,49,0,5.57,clear sky
163,Iqaluit,CA,63.7506,-68.5145,41.97,83,100,1.21,overcast clouds
164,Cotonou,BJ,6.3654,2.4183,77.56,85,98,15.93,light rain
165,Manicore,BR,-5.8092,-61.3003,85.95,70,0,2.3,clear sky
166,Scarborough,GB,54.2797,-0.4044,68.54,87,100,1.01,light rain
167,Makakilo City,US,21.3469,-158.0858,75.52,69,40,3.44,scattered clouds
168,Ixtapa,MX,20.7,-105.2,74.23,100,75,0.0,broken clouds
169,Ilulissat,GL,69.2167,-51.1,44.62,87,75,16.11,light intensity shower rain
170,Kununurra,AU,-15.7667,128.7333,58.98,67,6,0.0,clear sky
171,Waipawa,NZ,-41.4122,175.5153,40.46,83,100,27.85,moderate rain
172,Mianyang,CN,31.4593,104.7542,75.7,83,100,3.8,light rain
173,Bonavista,CA,48.6499,-53.1147,70.12,82,100,14.38,overcast clouds
174,Cidreira,BR,-30.1811,-50.2056,65.7,72,0,5.99,clear sky
175,Coquimbo,CL,-29.9533,-71.3436,51.53,100,75,4.61,broken clouds
176,Chau Doc,VN,10.7,105.1167,82.56,78,100,10.96,overcast clouds
177,Udalguri,IN,26.7667,92.1333,82.92,85,24,9.06,few clouds
178,Znamenskoye,RU,57.1281,73.8282,69.94,86,100,3.13,light rain
179,Saldanha,ZA,-33.0117,17.9442,60.44,77,100,18.19,overcast clouds
180,Zeya,RU,53.75,127.2667,54.12,77,100,6.64,overcast clouds
181,Bambous Virieux,MU,-20.3428,57.7575,72.21,86,80,18.72,moderate rain
182,Kaeo,NZ,-35.1,173.7833,46.33,92,88,12.5,light rain
183,Bengkulu,ID,-3.8004,102.2655,78.67,86,100,2.53,overcast clouds
184,Jamestown,US,42.097,-79.2353,74.01,90,1,1.01,clear sky
185,Middle Island,US,40.8843,-72.9373,71.62,90,90,0.0,overcast clouds
186,Ekibastuz,KZ,51.6667,75.3667,74.34,48,100,6.13,light rain
187,Thurso,GB,58.5927,-3.5259,62.55,72,8,13.47,clear sky
188,Namibe,AO,-15.1961,12.1522,74.19,72,96,13.47,overcast clouds
189,Miri,MY,4.4148,114.0089,80.74,89,40,3.44,light rain
190,Puerto Escondido,MX,15.85,-97.0667,76.03,78,40,5.75,scattered clouds
191,Arraial Do Cabo,BR,-22.9661,-42.0278,73.26,68,40,17.27,scattered clouds
192,Kaitong,CN,44.8135,123.15,75.43,71,5,6.58,clear sky
193,Chingirlau,KZ,51.095,54.0814,88.88,26,100,16.13,overcast clouds
194,Kremenki,RU,54.885,37.1261,77.9,59,100,7.11,light rain
195,Olafsvik,IS,64.8945,-23.7142,57.11,76,100,7.34,overcast clouds
196,Newport,GB,51.5877,-2.9984,67.08,78,84,21.92,broken clouds
197,Cairns,AU,-16.9167,145.7667,69.75,82,90,10.36,overcast clouds
198,Feni,BD,23.0186,91.41,81.32,87,43,11.74,scattered clouds
199,Kananga,CD,-5.8958,22.4178,95.94,19,100,2.35,overcast clouds
200,Luderitz,NA,-26.6481,15.1594,61.29,76,32,10.49,scattered clouds
201,Raudeberg,NO,61.9875,5.1352,71.38,74,100,8.99,overcast clouds
202,Chuy,UY,-33.6971,-53.4616,65.66,77,100,3.4,overcast clouds
203,Novo Aripuana,BR,-5.1206,-60.3797,88.16,41,6,4.18,clear sky
204,Jumla,NP,29.2747,82.1838,64.9,97,98,2.86,overcast clouds
205,Tasiilaq,GL,65.6145,-37.6368,46.56,96,100,17.05,moderate rain
206,Zyryanka,RU,65.75,150.85,53.47,77,3,6.42,clear sky
207,Santiago Del Estero,AR,-27.7951,-64.2615,61.81,35,0,17.02,clear sky
208,Tres Arroyos,AR,-38.3739,-60.2798,47.61,54,100,5.53,overcast clouds
209,Sioux Lookout,CA,50.1001,-91.917,57.58,94,90,6.91,mist
210,Vardo,NO,70.3705,31.1107,59.67,65,1,8.01,clear sky
211,Praia,CV,14.9215,-23.5087,84.74,74,40,10.36,scattered clouds
212,Pringsewu,ID,-5.3582,104.9744,76.96,87,10,1.9,clear sky
213,Champerico,GT,14.3,-91.9167,82.35,89,93,12.12,overcast clouds
214,Naryan-Mar,RU,67.6713,53.087,59.38,52,0,11.12,clear sky
215,Bodden Town,KY,19.2833,-81.25,86.0,78,20,3.0,few clouds
216,Husavik,IS,66.0449,-17.3389,58.91,70,21,5.77,few clouds
217,Hounde,BF,11.5,-3.5167,85.08,59,100,7.4,overcast clouds
218,Batemans Bay,AU,-35.7167,150.1833,44.91,77,100,4.41,overcast clouds
219,Yazoo City,US,32.8551,-90.4056,78.78,76,13,5.48,few clouds
220,Itoman,JP,26.1247,127.6694,82.78,96,75,12.66,mist
221,Georgetown,MY,5.4112,100.3354,84.88,69,40,5.75,scattered clouds
222,Grand Gaube,MU,-20.0064,57.6608,72.37,81,74,5.01,moderate rain
223,Pisco,PE,-13.7,-76.2167,60.85,77,90,4.61,overcast clouds
224,Hit,IQ,33.6416,42.8251,112.37,8,0,2.28,clear sky
225,Malanje,AO,-9.5402,16.341,88.27,11,83,4.59,broken clouds
226,Dunmore East,IE,52.1514,-6.9861,68.32,60,40,8.05,scattered clouds
227,Garmsar,IR,35.2182,52.3409,101.3,12,3,13.27,clear sky
228,Pevek,RU,69.7008,170.3133,37.98,80,91,8.1,overcast clouds
229,Zhumadian,CN,32.9794,114.0294,81.41,75,100,2.77,light rain
230,Kanniyakumari,IN,8.0833,77.5667,80.26,83,57,22.79,light rain
231,Talnakh,RU,69.4865,88.3972,75.47,36,0,2.62,clear sky
232,Moranbah,AU,-22.0016,148.0466,55.74,83,0,8.66,clear sky
233,Atar,MR,20.5169,-13.0499,95.85,29,10,9.75,clear sky
234,Souillac,MU,-20.5167,57.5167,72.36,94,75,8.05,light rain
235,Lenggries,DE,47.6833,11.5667,63.64,92,100,3.02,overcast clouds
236,Krasnokamensk,RU,50.0979,118.0369,64.17,81,68,4.18,broken clouds
237,Andenes,NO,69.3143,16.1194,67.98,56,0,8.05,clear sky
238,Cabo San Lucas,MX,22.8909,-109.9124,80.06,79,100,4.56,overcast clouds
239,Thompson,CA,55.7435,-97.8558,62.76,100,90,4.61,smoke
240,Saint Andrews,US,34.0454,-81.1293,77.59,91,90,0.0,mist
241,Kirakira,SB,-10.4544,161.9205,77.61,85,83,6.06,broken clouds
242,Nanortalik,GL,60.1432,-45.2371,43.9,85,50,10.07,scattered clouds
243,Port-Gentil,GA,-0.7193,8.7815,75.6,82,34,14.18,scattered clouds
244,Hofn,IS,64.2539,-15.2082,64.42,63,0,5.75,clear sky
245,Jinxiang,CN,27.4327,120.6062,80.1,85,0,2.77,clear sky
246,Lubao,PH,14.9167,120.55,84.15,89,100,5.39,overcast clouds
247,Hobyo,SO,5.3505,48.5268,80.01,72,100,29.66,overcast clouds
248,Ugoofaaru,MV,5.6667,73.0,81.66,72,100,16.04,overcast clouds
249,Bethel,US,41.3712,-73.414,73.29,87,1,0.0,clear sky
250,Abapo,BO,-18.8333,-63.4667,70.36,40,16,0.83,few clouds
251,Nantucket,US,41.2835,-70.0995,75.99,87,1,12.66,clear sky
252,Puerto Ayora,EC,-0.7393,-90.3518,69.55,89,37,10.0,scattered clouds
253,Tezu,IN,27.9167,96.1667,79.18,95,91,2.48,overcast clouds
254,Shelburne,CA,44.0787,-80.2041,68.59,87,60,5.53,broken clouds
255,Topolobampo,MX,25.6,-109.05,78.12,86,100,8.9,overcast clouds
256,Derzhavinsk,KZ,51.1,66.3167,74.86,31,18,16.82,few clouds
257,Jatiroto,ID,-7.8833,111.1167,75.54,89,37,2.35,scattered clouds
258,Bonfim,BR,3.0833,-59.95,77.95,83,98,1.36,overcast clouds
259,Homer,US,59.6425,-151.5483,55.29,76,90,0.0,light rain
260,At-Bashi,KG,41.1702,75.8106,71.92,30,26,9.15,scattered clouds
261,Inhambane,MZ,-23.865,35.3833,74.5,50,0,9.51,clear sky
262,Val-David,CA,46.0334,-74.2159,67.71,75,2,4.52,clear sky
263,San Quintin,MX,30.4833,-115.95,65.07,90,20,2.8,few clouds
264,San-Pedro,CI,4.7485,-6.6363,80.65,71,98,9.95,overcast clouds
265,Norman Wells,CA,65.282,-126.8329,44.2,83,100,2.44,overcast clouds
266,Lae,PG,-6.7221,146.9847,75.69,86,93,1.86,overcast clouds
267,Kupino,RU,54.3663,77.2981,67.23,79,100,5.37,overcast clouds
268,Banes,CU,20.9625,-75.7186,84.81,66,8,11.3,clear sky
269,Redlands,US,34.0556,-117.1825,81.54,54,1,3.44,clear sky
270,Goderich,CA,43.7501,-81.7165,72.91,83,100,5.75,overcast clouds
271,Richards Bay,ZA,-28.783,32.0377,82.54,30,0,11.61,clear sky
272,Hyeres,FR,43.1167,6.1167,90.25,35,0,16.11,clear sky
273,Mar Del Plata,AR,-38.0023,-57.5575,50.02,62,0,9.22,light rain
274,Hirara,JP,24.8,125.2833,79.63,89,95,17.22,overcast clouds
275,Hithadhoo,MV,-0.6,73.0833,83.26,67,100,1.32,light rain
276,Malakal,SS,9.5334,31.6605,80.74,74,100,2.3,light rain
277,Qaqortoq,GL,60.7167,-46.0333,48.7,74,8,14.92,clear sky
278,Tiksi,RU,71.6872,128.8694,46.76,86,21,6.67,few clouds
279,Marsa Matruh,EG,31.3525,27.2453,85.86,50,0,16.53,clear sky
280,Peace River,CA,56.2501,-117.286,52.66,97,20,4.0,few clouds
281,Bayir,TR,37.2687,28.2167,93.72,19,0,14.65,clear sky
282,Adrar,MR,20.5022,-10.0711,101.1,16,10,17.78,clear sky
283,Skagen,DK,57.7209,10.5839,64.38,77,51,10.56,broken clouds
284,Lamu,KE,-2.2717,40.902,80.82,70,92,15.41,overcast clouds
285,Touros,BR,-5.1989,-35.4608,76.1,66,57,19.75,broken clouds
286,Hamilton,US,39.1834,-84.5333,77.49,86,1,1.01,clear sky
287,Anadyr,RU,64.75,177.4833,41.5,81,0,15.66,clear sky
288,Qeshm,IR,26.9581,56.2719,102.09,71,0,11.23,clear sky
289,Acari,PE,-15.4311,-74.6158,65.41,69,58,4.94,broken clouds
290,Rondonopolis,BR,-16.4708,-54.6356,82.17,32,0,10.29,clear sky
291,Sibolga,ID,1.7427,98.7792,79.86,86,100,2.35,light rain
292,Tarakan,ID,3.3,117.6333,80.1,89,40,3.44,scattered clouds
293,Faanui,PF,-16.4833,-151.75,79.03,73,37,10.83,scattered clouds
294,Rocha,UY,-34.4833,-54.3333,59.5,87,100,7.85,overcast clouds
295,Sturgeon Bay,US,44.8342,-87.377,70.21,100,75,11.5,moderate rain
296,Brigantine,US,39.4101,-74.3646,70.07,97,90,11.5,mist
297,Aguimes,ES,27.9054,-15.4461,74.03,65,20,26.46,few clouds
298,Nyurba,RU,63.2842,118.3319,62.26,97,100,1.54,overcast clouds
299,Havre-Saint-Pierre,CA,50.2334,-63.5986,62.96,51,20,11.5,few clouds
300,Okhotsk,RU,59.3833,143.3,58.15,76,9,8.84,clear sky
301,Ambovombe,MG,-25.1667,46.0833,70.7,65,0,9.33,clear sky
302,Marsabit,KE,2.3284,37.9899,80.47,32,24,11.77,few clouds
303,La Romana,DO,18.4273,-68.9728,80.96,83,20,6.91,few clouds
304,Pushkinskiye Gory,RU,57.0209,28.9103,75.85,41,100,5.41,overcast clouds
305,Port Blair,IN,11.6667,92.75,82.92,82,87,9.62,overcast clouds
306,Sao Sebastiao,BR,-23.76,-45.4097,73.74,48,0,1.88,clear sky
307,Elverum,NO,60.8819,11.5623,71.6,44,54,4.74,light rain
308,Donskoye,RU,45.4552,41.9741,91.53,24,9,11.34,clear sky
309,Muros,ES,42.7762,-9.0603,78.15,69,12,10.71,few clouds
310,Pyshma,RU,56.9523,63.2513,65.32,93,100,9.93,light rain
311,Joshimath,IN,30.5667,79.5667,73.31,97,91,3.44,overcast clouds
312,Izumo,JP,35.3667,132.7667,76.95,93,100,10.07,heavy intensity rain
313,Bumba,CD,2.1833,22.4667,90.16,40,15,2.59,few clouds
314,Pafos,CY,34.7667,32.4167,92.23,52,20,17.27,few clouds
315,Abu Kamal,SY,34.4506,40.9171,105.31,12,0,4.7,clear sky
316,Cartagena,CO,10.3997,-75.5144,83.82,84,40,6.91,scattered clouds
317,Phangnga,TH,8.4509,98.5298,82.51,89,99,3.22,overcast clouds
318,Garden City,US,42.3256,-83.331,74.46,91,75,5.75,broken clouds
319,Margate,GB,51.3813,1.3862,64.9,81,99,4.0,overcast clouds
320,Clyde River,CA,70.4692,-68.5914,41.92,62,0,10.6,clear sky
321,Xicotencatl,MX,23.0167,-98.8833,79.48,84,100,3.15,overcast clouds
322,Boissevain,CA,49.2306,-100.0559,69.64,56,11,14.12,light rain
323,Hokitika,NZ,-42.7167,170.9667,38.48,75,100,8.97,overcast clouds
324,Hami,CN,42.8,93.45,91.26,9,6,7.23,clear sky
325,Mackay,AU,-21.15,149.2,65.05,76,4,12.82,clear sky
326,San Francisco,US,37.7749,-122.4194,62.47,92,75,1.99,broken clouds
327,Lobito,AO,-12.3481,13.5456,75.92,72,62,9.22,broken clouds
328,Avera,US,33.194,-82.5271,77.4,74,1,5.12,clear sky
329,Talcahuano,CL,-36.7167,-73.1167,35.28,93,0,4.61,clear sky
330,Milkovo,RU,54.7167,158.6167,50.54,78,97,5.21,overcast clouds
331,Marsh Harbour,BS,26.5412,-77.0636,83.19,71,3,9.1,clear sky
332,Carnarvon,AU,-24.8667,113.6333,68.07,81,90,4.61,overcast clouds
333,Nouadhibou,MR,20.931,-17.0347,69.37,89,1,16.6,clear sky
334,Meulaboh,ID,4.1363,96.1285,80.98,83,100,8.28,overcast clouds
335,Sinnamary,GF,5.3833,-52.95,82.49,75,63,8.75,broken clouds
336,Frankenberg,DE,51.0667,8.8,70.56,45,100,13.69,overcast clouds
337,Whitefish,US,48.4111,-114.3376,58.5,95,90,3.44,light rain
338,Laguna,US,38.421,-121.4238,72.01,80,1,1.99,clear sky
339,Boundiali,CI,9.5217,-6.4869,81.73,69,94,4.7,light rain
340,Yaan,NG,7.3833,8.5667,77.4,84,100,10.29,light rain
341,Bangassou,CF,4.7413,22.8184,83.19,60,100,0.74,overcast clouds
342,Vestmannaeyjar,IS,63.4427,-20.2734,61.79,72,0,11.5,clear sky
343,Port Hedland,AU,-20.3167,118.5667,64.45,82,2,0.0,clear sky
344,Sao Filipe,CV,14.8961,-24.4956,79.99,80,34,11.32,scattered clouds
345,Punta Alta,AR,-38.8759,-62.0736,48.29,55,100,4.83,overcast clouds
346,Linda,US,39.1277,-121.5508,75.9,71,40,0.0,scattered clouds
347,Lata,PT,40.1629,-8.3327,82.04,27,0,9.33,clear sky
348,Sobolevo,RU,54.4299,31.8996,76.28,45,100,4.0,overcast clouds
349,Kemijarvi,FI,66.7131,27.4306,63.12,55,100,14.29,overcast clouds
350,Mariental,NA,-24.6333,17.9667,84.15,10,4,15.03,clear sky
351,Sikonge,TZ,-5.6333,32.7667,88.65,20,25,5.28,scattered clouds
352,Brownwood,US,31.7093,-98.9912,78.12,77,53,14.45,broken clouds
353,Pocone,BR,-16.2567,-56.6228,88.65,26,5,11.9,clear sky
354,Porto Torres,IT,40.835,8.3972,84.38,59,100,10.49,light rain
355,La Palma,US,33.8464,-118.0467,70.5,85,90,1.01,overcast clouds
356,Saravena,CO,6.9538,-71.8752,76.42,85,100,0.94,moderate rain
357,Gorontalo,ID,0.5412,123.0595,74.98,94,63,2.59,moderate rain
358,Vasilyevskiy Mokh,RU,57.0132,35.919,77.58,47,0,6.76,clear sky
359,Formosa,AR,-26.1775,-58.1781,78.78,36,0,18.41,clear sky
360,Caravelas,BR,-17.7125,-39.2481,73.67,70,30,11.25,scattered clouds
361,Northam,GB,51.0333,-4.2167,68.41,80,42,19.6,scattered clouds
362,Bani,DO,18.2833,-70.3333,83.86,57,0,9.86,clear sky
363,Mmabatho,ZA,-25.85,25.6333,80.56,17,0,8.05,clear sky
364,Bacolod,PH,10.6667,122.95,79.25,88,100,6.6,light rain
365,Marsaxlokk,MT,35.8419,14.5431,88.41,62,0,14.97,clear sky
366,Ayr,GB,55.4627,-4.6339,64.38,77,40,9.22,scattered clouds
367,Grande Prairie,CA,55.1667,-118.8027,51.98,87,75,9.22,broken clouds
368,Lavrentiya,RU,65.5833,-171.0,42.48,89,100,13.29,overcast clouds
369,Lasa,IT,46.6166,10.7002,74.28,84,81,5.66,broken clouds
370,Waw,SS,7.7029,27.9953,80.89,80,100,2.66,moderate rain
371,Penarroya-Pueblonuevo,ES,38.3,-5.2667,86.45,14,0,6.78,clear sky
372,Palmer,US,42.1584,-72.3287,75.47,74,90,4.61,overcast clouds
373,Sisimiut,GL,66.9395,-53.6735,41.49,91,100,5.66,overcast clouds
374,San Patricio,US,28.017,-97.5169,85.86,84,0,6.29,clear sky
375,Davila,PH,18.4726,120.5763,82.35,83,100,15.57,light rain
376,Yantzaza,EC,-3.8278,-78.7594,67.86,78,82,0.47,broken clouds
377,Dosso,NE,13.049,3.1937,91.74,48,99,15.17,overcast clouds
378,Flinders,AU,-34.5833,150.8552,55.8,76,100,1.01,overcast clouds
379,Sitka,US,57.0531,-135.33,57.09,88,90,5.75,overcast clouds
380,Kuytun,RU,54.3419,101.5036,62.94,50,79,3.51,broken clouds
381,Nisia Floresta,BR,-6.0911,-35.2086,79.18,60,79,18.03,broken clouds
382,Balkhash,KZ,46.844,74.9804,81.25,37,11,12.17,few clouds
383,Arcata,US,40.8665,-124.0828,59.74,97,90,0.0,fog
384,Agnibilekrou,CI,7.1344,-3.2047,75.81,81,100,3.44,overcast clouds
385,Novaya Ladoga,RU,60.1025,32.3019,69.53,73,52,2.59,broken clouds
386,Moose Factory,CA,51.2585,-80.6094,60.8,67,1,5.75,clear sky
387,Nikolayevsk-Na-Amure,RU,53.1406,140.73,49.24,95,100,3.36,overcast clouds
388,Umm Lajj,SA,25.0213,37.2685,97.02,37,0,9.98,clear sky
389,Codrington,AU,-38.2667,141.9667,52.72,60,100,7.07,overcast clouds
390,Manta,EC,-0.95,-80.7333,71.38,83,90,8.05,overcast clouds
391,Fairbanks,US,64.8378,-147.7164,56.61,92,90,4.61,overcast clouds
392,Sao Felix Do Xingu,BR,-6.6447,-51.995,86.77,34,21,5.55,few clouds
393,Dolores,AR,-36.3132,-57.6792,49.33,60,100,11.92,moderate rain
394,Southbridge,US,42.0751,-72.0334,75.63,83,100,6.69,overcast clouds
395,Padang,ID,-0.9492,100.3543,80.65,85,97,1.63,light rain
396,Arona,ES,28.0996,-16.681,73.71,75,75,3.0,broken clouds
397,Roebourne,AU,-20.7833,117.1333,70.07,67,0,5.61,light rain
398,Gat,IL,31.61,34.7642,93.4,45,0,13.58,clear sky
399,Obihiro,JP,42.9172,143.2044,62.01,97,100,2.46,overcast clouds
400,Alugan,PH,12.2188,125.4808,80.83,80,100,5.7,overcast clouds
401,Hede,CN,33.7681,120.2517,74.28,82,0,1.14,light rain
402,Panjab,AF,34.388,67.0233,69.17,28,71,15.68,broken clouds
403,Klaksvik,FO,62.2266,-6.589,56.32,92,96,11.97,overcast clouds
404,Grimshaw,CA,56.1834,-117.6027,52.02,93,20,4.61,few clouds
405,Malindi,KE,-3.2175,40.1191,78.98,66,10,16.15,clear sky
406,Abilene,US,32.4487,-99.7331,78.49,78,1,3.0,clear sky
407,Montepuez,MZ,-13.1256,38.9997,84.83,25,3,6.98,clear sky
408,Wiarton,CA,44.7407,-81.1332,72.23,94,90,6.91,mist
409,Borovoy,RU,55.4333,86.0833,72.68,68,40,2.24,light rain
410,Broome,US,42.2506,-75.833,75.2,87,1,1.01,clear sky
411,Tiznit,MA,29.5833,-9.5,81.23,44,0,12.24,clear sky
412,Ulagan,RU,50.6321,87.9563,64.89,56,100,3.24,overcast clouds
413,Kismayo,SO,-0.3582,42.5454,79.9,70,72,18.92,broken clouds
414,Dunedin,NZ,-45.8742,170.5036,35.98,84,72,11.86,broken clouds
415,Murgab,TM,37.4966,61.9714,105.67,18,0,11.5,clear sky
416,Antofagasta,CL,-23.65,-70.4,58.28,75,84,7.63,broken clouds
417,Tatawin,TN,32.9297,10.4518,117.48,7,0,8.39,clear sky
418,Wawa,NG,9.9022,4.4192,85.03,61,99,4.0,overcast clouds
419,Rawson,AR,-43.3002,-65.1023,44.55,54,0,9.4,clear sky
420,Puerto Asis,CO,0.5133,-76.5007,75.76,75,90,0.76,overcast clouds
421,Chiman,PK,32.5463,73.8138,82.54,39,3,6.55,clear sky
422,Poya,NC,-21.35,165.15,63.86,80,59,8.16,broken clouds
423,Praia Da Vitoria,PT,38.7333,-27.0667,75.76,72,53,16.4,broken clouds
424,Wagar,SD,16.1525,36.2032,90.18,47,98,7.54,overcast clouds
425,Artesia,US,33.8658,-118.0831,70.48,85,90,1.01,overcast clouds
426,Gambela,ET,8.25,34.5833,81.73,69,100,3.76,light rain
427,Kedrovyy,RU,56.1667,91.8167,64.81,72,95,4.32,overcast clouds
428,Chandbali,IN,20.7833,86.7667,88.21,66,100,9.75,overcast clouds
429,Sidney,AU,-33.8679,151.2073,53.11,89,75,5.75,light rain
430,North Platte,US,41.1239,-100.7654,60.69,94,20,5.75,mist
431,Buin,CL,-33.7333,-70.75,50.32,85,92,2.51,moderate rain
432,Morgan City,US,29.6994,-91.2068,82.0,94,40,0.0,scattered clouds
433,Chiredzi,ZW,-21.05,31.6667,82.29,27,0,6.93,clear sky
434,Kurchum,KZ,48.5722,83.6542,81.57,26,9,2.1,clear sky
435,Maceio,BR,-9.6658,-35.7353,80.04,65,75,13.8,broken clouds
436,Lampazos De Naranjo,MX,27.0167,-100.5167,78.13,69,0,6.24,clear sky
437,Sunrise Manor,US,36.2111,-115.0731,84.61,17,1,5.75,smoke
438,Berlevag,NO,70.8578,29.0864,64.31,54,7,10.96,clear sky
439,Riyadh,SA,24.6877,46.7219,111.34,9,49,9.04,scattered clouds
440,Rabaul,PG,-4.1967,152.1721,79.29,80,100,4.07,overcast clouds
441,Inzer,RU,54.2167,57.5556,72.84,45,4,9.04,clear sky
442,Keti Bandar,PK,24.1447,67.4497,83.07,71,100,14.27,overcast clouds
443,Constitucion,CL,-35.3333,-72.4167,45.82,67,100,5.26,overcast clouds
444,Sao Raimundo Das Mangabeiras,BR,-7.0219,-45.4811,84.38,37,9,12.24,clear sky
445,Beringovskiy,RU,63.05,179.3167,43.41,89,100,25.3,light rain
446,Prainha,BR,-1.8,-53.48,83.97,59,3,5.14,clear sky
447,Saint Peter,BB,13.25,-59.6167,80.91,76,85,19.53,overcast clouds
448,Tura,IN,25.5198,90.2201,76.28,97,80,5.48,broken clouds
449,Kisangani,CD,0.5167,25.2,91.44,37,18,4.76,few clouds
450,Olinda,BR,-8.0089,-34.8553,80.33,65,40,16.11,scattered clouds
451,Puerto Penasco,MX,31.3167,-113.5333,85.91,84,3,14.0,clear sky
452,Manavalakurichi,IN,8.1333,77.3,80.69,84,77,15.88,light rain
453,Nokaneng,BW,-19.6667,22.2667,87.01,8,0,6.8,clear sky
454,Rio Gallegos,AR,-51.6226,-69.2181,37.45,81,0,13.8,clear sky
455,Port Hardy,CA,50.6996,-127.4199,55.76,93,100,7.76,overcast clouds
456,Kirovskiy,RU,45.0917,133.5136,59.5,87,61,6.46,broken clouds
457,Andapa,MG,-14.65,49.65,73.06,66,54,5.01,broken clouds
458,Pangnirtung,CA,66.1451,-65.7125,42.15,84,97,4.38,overcast clouds
459,Honiara,SB,-9.4333,159.95,77.29,88,99,3.58,overcast clouds
460,Valley City,US,46.9233,-98.0032,68.74,100,90,0.0,mist
461,Amboasary,MG,-25.0333,46.3833,75.04,62,0,10.04,clear sky
462,Askoy,NO,60.4092,5.226,68.76,49,40,5.75,scattered clouds
463,Necochea,AR,-38.5473,-58.7368,51.42,53,99,6.93,overcast clouds
464,Round Rock,US,30.5083,-97.6789,80.19,85,1,1.01,clear sky
465,Alikovo,RU,55.7383,46.7549,82.27,30,100,8.16,overcast clouds
466,Kousseri,CM,12.0769,15.0306,87.15,58,66,10.38,broken clouds
467,Pangody,RU,65.85,74.4859,75.74,46,0,13.62,clear sky
468,Mitzic,GA,0.7821,11.549,82.54,57,86,3.8,overcast clouds
469,Carlisle,US,40.2015,-77.1889,75.63,73,44,1.01,scattered clouds
470,Sayat,TM,38.7839,63.8803,103.87,7,0,21.43,clear sky
471,Morristown,US,36.214,-83.2949,70.5,63,92,1.01,overcast clouds
472,Vilhena,BR,-12.7406,-60.1458,77.22,44,0,11.5,clear sky
473,Impfondo,CG,1.6381,18.0667,93.2,36,81,3.71,broken clouds
474,Belaya Gora,RU,68.5333,146.4167,55.18,52,54,7.05,broken clouds
475,Port Augusta,AU,-32.5,137.7667,51.94,55,0,5.48,clear sky
476,Naro Moru,KE,-0.1676,37.0213,63.46,74,99,5.55,moderate rain
477,Brookhaven,US,31.5791,-90.4407,78.8,78,5,3.24,clear sky
478,Karema,TZ,-6.8205,30.4389,82.06,41,3,9.19,clear sky
479,Xianshuigu,CN,38.985,117.3828,82.4,83,100,2.24,mist
480,Lagoa,PT,39.05,-27.9833,70.7,78,90,15.19,overcast clouds
481,Hovd,MN,48.0056,91.6419,67.42,40,100,5.01,overcast clouds
482,Nabire,ID,-3.3667,135.4833,76.3,91,100,3.02,overcast clouds
483,Hearst,CA,49.6835,-83.6665,55.65,72,100,8.03,overcast clouds
484,Yamada,JP,39.4667,141.95,76.59,98,100,8.55,overcast clouds
485,Buenavista,PH,8.9769,125.4089,75.16,92,100,4.54,overcast clouds
486,Numan,NG,9.4667,12.0333,87.87,53,96,10.45,overcast clouds
487,Bubaque,GW,11.2833,-15.8333,79.5,73,44,8.88,scattered clouds
488,Parrita,CR,9.5201,-84.3225,85.98,78,20,2.46,few clouds
489,Loyga,RU,61.0784,44.6075,54.21,92,100,7.76,overcast clouds
490,Chicama,PE,-7.8447,-79.1469,61.34,82,52,3.98,broken clouds
491,Kautokeino,NO,69.0125,23.0412,67.75,40,31,17.58,scattered clouds
492,Bedele,ET,8.456,36.353,66.24,75,100,5.75,light rain
493,Saint-Pierre,RE,-21.3393,55.4781,80.28,57,0,4.61,clear sky
494,Zurrieq,MT,35.8311,14.4742,87.31,62,0,14.97,clear sky
495,Upata,VE,8.0086,-62.3989,78.19,85,100,4.41,overcast clouds
496,Thinadhoo,MV,0.5333,72.9333,83.25,73,100,6.89,overcast clouds
497,Kulhudhuffushi,MV,6.6221,73.07,80.02,71,100,20.04,light rain
498,Worthing,GB,50.8145,-0.3713,67.95,61,40,15.01,scattered clouds
499,Mago,RU,53.2514,140.1822,48.43,93,100,4.21,overcast clouds
500,Florianopolis,BR,-27.6146,-48.5012,66.25,77,0,9.22,clear sky
501,Parkes,AU,-33.1333,148.1833,49.32,71,45,11.86,scattered clouds
502,Gilgit,PK,35.9221,74.3087,81.1,47,86,6.98,light rain
503,Dickinson,US,29.4608,-95.0513,85.03,84,20,0.0,few clouds
504,Marrakesh,MA,31.6315,-8.0083,84.27,45,0,6.91,clear sky
505,Dukat,RU,62.55,155.55,47.19,86,95,4.25,overcast clouds
506,Nur,PL,52.6683,22.3221,73.78,73,98,11.92,overcast clouds
507,Kralendijk,BQ,12.15,-68.2667,85.98,70,40,9.22,scattered clouds
508,Missoula,US,47.0166,-113.8009,55.8,81,52,3.78,broken clouds
509,Banda Aceh,ID,5.5577,95.3222,81.36,81,100,8.08,overcast clouds
510,Bowen,AU,-20.0167,148.2333,67.3,78,30,14.54,scattered clouds
511,Hasaki,JP,35.7333,140.8333,79.2,91,100,11.36,overcast clouds
512,Dongfeng,CN,42.6403,125.5118,68.04,72,0,5.32,clear sky
513,Iquitos,PE,-3.7481,-73.2472,78.84,83,0,5.75,clear sky
514,Dalen,NL,52.6992,6.7556,68.86,69,100,19.17,overcast clouds
515,Malatya,TR,38.5,38.0,86.05,27,75,4.61,broken clouds
516,Purpe,RU,64.4803,76.6897,77.79,44,14,6.46,few clouds
517,Mahajanga,MG,-15.7167,46.3167,80.62,57,20,11.5,few clouds
518,Sabang,ID,5.8933,95.3214,83.43,77,100,12.64,overcast clouds
519,Hwange,ZW,-18.3693,26.5019,83.66,18,0,6.44,clear sky
520,Harper,LR,4.375,-7.7169,80.69,70,100,9.53,light rain
521,Port Lincoln,AU,-34.7333,135.8667,54.34,76,27,9.98,scattered clouds
522,Takoradi,GH,4.8845,-1.7554,81.21,70,92,13.4,overcast clouds
523,Los Llanos De Aridane,ES,28.6585,-17.9182,71.35,90,75,8.05,broken clouds
524,Sylacauga,US,33.1732,-86.2516,77.27,93,90,0.0,overcast clouds
525,Ratnagiri,IN,16.9833,73.3,81.77,81,100,5.79,overcast clouds
526,Mitu,CO,1.1983,-70.1733,77.13,81,75,1.12,broken clouds
527,Bara,NG,10.3744,10.7288,85.78,70,100,12.62,overcast clouds
528,Tigil,RU,57.8,158.6667,43.7,90,24,5.26,few clouds
529,Ambon,ID,-3.6954,128.1814,75.34,100,40,4.61,scattered clouds
530,Pacific Grove,US,36.6177,-121.9166,58.57,94,90,1.99,overcast clouds
531,Cockburn Town,TC,21.4612,-71.1419,84.16,70,40,9.22,scattered clouds
532,Kongoussi,BF,13.3258,-1.5347,91.76,41,100,5.61,overcast clouds
533,Jackson,US,42.4165,-122.8345,67.87,75,90,5.75,overcast clouds
534,La Ronge,CA,55.1001,-105.2842,57.42,94,90,2.3,overcast clouds
535,Rolla,US,37.9514,-91.7713,75.94,79,20,5.99,few clouds
536,Malya,TZ,-2.9833,33.5167,84.74,27,95,6.6,overcast clouds
537,Pacasmayo,PE,-7.4006,-79.5714,64.09,81,61,8.3,broken clouds
538,Nacala,MZ,-14.5428,40.6728,81.72,47,75,16.11,broken clouds
539,Griffith,US,41.5284,-87.4237,78.89,84,1,5.01,clear sky
540,Kieta,PG,-6.2167,155.6333,77.18,85,98,5.12,light rain
541,Swift Current,CA,50.2834,-107.8014,59.81,72,90,12.66,overcast clouds
542,Moron,AR,-34.6534,-58.6198,55.96,75,84,8.99,broken clouds
543,Bere,TD,9.3202,16.1552,77.54,81,95,3.87,overcast clouds
544,Kourou,GF,5.1552,-52.6478,87.12,71,48,9.13,scattered clouds
545,Puerto Carreno,CO,6.189,-67.4859,77.56,82,76,2.62,broken clouds
546,Omsukchan,RU,62.5333,155.8,48.85,83,78,4.45,broken clouds
547,Sheboygan,US,43.7333,-87.9334,72.68,94,75,1.01,broken clouds
548,De Aar,ZA,-30.6497,24.0123,75.88,10,7,31.27,clear sky
549,Holland,US,42.7875,-86.1089,74.41,74,1,1.99,mist
550,Hailey,US,43.5196,-114.3153,53.46,66,1,11.5,clear sky
551,Sursk,RU,53.0754,45.6846,87.04,29,100,7.05,overcast clouds
552,Langsa,ID,4.4683,97.9683,76.03,95,81,1.79,broken clouds
553,Serebryansk,KZ,49.6925,83.2892,72.95,49,38,4.52,scattered clouds
554,Nogliki,RU,51.8333,143.1667,52.54,89,100,8.25,overcast clouds
555,Ailigandi,PA,9.2333,-78.0167,78.1,87,100,4.68,overcast clouds
556,Rafraf,TN,37.1904,10.1837,93.51,68,24,11.43,few clouds
557,Ponta Delgada,PT,37.7333,-25.6667,75.92,53,75,11.5,broken clouds
558,Liverpool,GB,53.4106,-2.9779,64.85,76,75,7.0,broken clouds
559,Dwarka,IN,22.2394,68.9678,82.96,71,93,11.77,overcast clouds
560,Mitsamiouli,KM,-11.3847,43.2844,77.49,65,16,7.38,light rain
561,Lucea,JM,18.451,-78.1736,85.86,74,10,5.79,clear sky
562,Rawlins,US,41.7911,-107.2387,61.02,44,1,4.61,haze
563,Sakakah,SA,29.9697,40.2064,105.21,8,0,12.41,clear sky
564,Siljan,NO,59.2884,9.71,72.86,46,76,6.89,broken clouds
565,Lundazi,ZM,-12.2929,33.1782,80.71,25,0,10.45,clear sky
566,Berbera,SO,10.4396,45.0143,93.13,47,0,10.54,clear sky
567,Sambava,MG,-14.2667,50.1667,75.06,67,7,13.27,clear sky
568,Matay,EG,28.419,30.7792,103.8,12,0,12.41,clear sky
569,Siemiatycze,PL,52.4272,22.8623,73.26,77,100,11.72,overcast clouds
570,Issoudun,FR,47.0,1.8333,71.51,49,75,19.57,broken clouds
571,Buckeye,US,33.3703,-112.5838,90.5,49,0,5.26,clear sky
572,Trelew,AR,-43.249,-65.3051,44.26,52,0,8.37,clear sky
573,Sept-Iles,CA,50.2001,-66.3821,63.25,54,20,7.0,few clouds
574,Coihaique,CL,-45.5752,-72.0662,37.35,75,20,3.44,few clouds
575,Port-Cartier,CA,50.0334,-66.8654,62.92,49,18,7.16,few clouds
576,Cortez,US,37.3489,-108.5859,60.42,61,1,4.61,haze
577,Kangasala,FI,61.4638,24.076,70.86,55,100,8.14,overcast clouds
578,Aleksandrovsk-Sakhalinskiy,RU,50.8975,142.1561,53.47,78,100,5.41,overcast clouds
579,Vwawa,TZ,-9.1167,32.9333,79.95,23,9,5.55,clear sky
580,Kristiinankaupunki,FI,62.2743,21.376,64.6,74,100,15.3,overcast clouds
581,Sola,VU,-13.8833,167.55,75.56,88,100,14.79,moderate rain
582,Phalombe,MW,-15.8064,35.6507,78.71,29,16,6.06,few clouds
583,Arlit,NE,18.7369,7.3853,104.25,19,98,8.75,overcast clouds
584,Aksu,CN,41.1231,80.2644,87.03,25,25,8.25,scattered clouds
585,Korla,CN,41.7597,86.1469,89.31,23,100,1.14,overcast clouds
586,Ascension,US,30.2169,-90.9001,84.2,93,1,0.0,clear sky
587,Mahon,ES,39.8885,4.2658,81.16,54,0,17.27,clear sky
588,Daru,PG,-9.0763,143.2092,76.26,89,100,16.75,overcast clouds
589,Auki,SB,-8.7676,160.7034,75.9,89,100,4.65,overcast clouds
590,Tianmen,CN,30.6516,113.1603,80.06,87,100,4.94,light rain
591,Sao Miguel Do Araguaia,BR,-13.275,-50.1628,83.39,25,0,13.76,clear sky
592,Alta Floresta,BR,-9.8756,-56.0861,84.92,32,4,5.14,clear sky
593,Russell,US,32.3502,-85.1999,76.23,85,1,0.0,light intensity drizzle
594,Hualmay,PE,-11.0964,-77.6139,62.47,82,84,9.06,broken clouds
595,Vostok,RU,46.4856,135.8833,51.58,94,100,5.53,overcast clouds
596,Taman,RU,45.2117,36.7161,80.92,67,51,15.99,broken clouds
597,Rincon,US,32.296,-81.2354,81.86,88,20,0.0,few clouds
598,Tomarovka,RU,50.6834,36.2331,88.56,31,100,8.01,overcast clouds
599,Broken Hill,AU,-31.95,141.4333,49.87,60,0,7.16,clear sky
600,Lotofaga,WS,-13.9764,-171.8578,74.98,82,77,13.87,light rain
601,Rodrigues Alves,BR,-7.738,-72.6509,77.94,57,5,1.16,clear sky
602,Kokopo,PG,-4.352,152.2633,76.42,85,100,4.7,overcast clouds
603,Pakokku,MM,21.3333,95.1,88.79,62,98,14.07,overcast clouds
604,Birao,CF,10.2849,22.7882,82.18,68,72,7.83,light rain
605,Roma,US,43.2128,-75.4557,76.42,79,40,5.75,scattered clouds
606,Kargasok,RU,59.0556,80.8572,74.77,63,39,5.93,scattered clouds
607,Baniachang,BD,24.5167,91.3667,80.85,90,89,8.75,overcast clouds
608,Kudahuvadhoo,MV,2.6708,72.8944,83.5,73,100,14.2,overcast clouds
609,Castelfranco Veneto,IT,45.6761,11.926,89.64,61,40,9.22,scattered clouds
610,Senneterre,CA,48.3835,-77.2328,55.62,54,100,5.21,overcast clouds
611,Stellenbosch,ZA,-33.9346,18.8668,61.74,61,100,18.92,overcast clouds
612,Muli,MV,2.9167,73.5667,83.3,73,100,14.97,moderate rain
613,Amahai,ID,-3.3333,128.9167,77.32,86,100,2.66,light rain
614,Montague,US,42.5356,-72.5351,77.25,84,100,4.43,overcast clouds
615,Port Moresby,PG,-9.4431,147.1797,75.11,90,100,14.2,overcast clouds
616,Acheng,CN,45.5454,126.977,75.13,81,0,7.47,clear sky
617,Escuinapa,MX,22.85,-105.8,75.11,92,82,2.64,broken clouds
618,Bilma,NE,18.6853,12.9164,102.45,23,90,8.46,overcast clouds
619,Mareeba,AU,-17.0,145.4333,65.12,88,28,2.95,scattered clouds
620,Kim,TJ,40.208,70.4688,93.58,11,1,9.93,clear sky
621,Zarate,AR,-34.0981,-59.0286,55.11,73,100,13.49,overcast clouds
622,Lauria,IT,40.0465,15.8358,90.0,27,0,7.14,clear sky
623,Selma,US,36.5708,-119.6121,72.9,68,20,5.75,haze
624,Flin Flon,CA,54.7682,-101.865,62.44,94,90,0.0,mist
625,Georgiyevka,KZ,43.0369,74.7114,96.84,16,0,4.47,clear sky
626,Pulsano,IT,40.3821,17.3564,96.84,53,0,11.5,clear sky
627,Maryville,US,35.7565,-83.9705,73.85,93,40,4.61,scattered clouds
628,Novyy Urengoy,RU,66.0833,76.6333,77.38,44,24,11.12,few clouds
629,Ambilobe,MG,-13.2,49.05,80.47,53,32,7.99,scattered clouds
630,Half Moon Bay,US,37.4636,-122.4286,62.33,91,75,1.01,broken clouds
631,Kipit,PH,8.0461,122.5322,77.68,87,100,2.04,overcast clouds
632,Prescott,US,34.54,-112.4685,69.37,48,0,3.06,clear sky
633,Lac Du Bonnet,CA,50.2536,-96.0612,64.99,83,33,8.97,scattered clouds
634,Yar-Sale,RU,66.8333,70.8333,72.59,57,53,15.61,broken clouds
635,Luocheng,CN,29.3848,104.0286,75.45,96,100,3.67,light rain
636,Yulara,AU,-25.2406,130.9889,53.44,28,0,6.91,clear sky
637,Izhma,RU,65.0083,53.9113,64.71,44,22,6.96,few clouds
638,Kiama,AU,-34.6833,150.8667,55.99,77,100,3.49,overcast clouds
639,Campbellton,CA,48.0075,-66.6727,64.85,64,1,3.22,clear sky
640,Hambantota,LK,6.1241,81.1185,80.24,80,100,19.53,overcast clouds
641,Norden,DE,53.6,7.2,69.78,76,79,22.39,broken clouds
642,Shakawe,BW,-18.3667,21.85,87.42,7,0,7.27,clear sky
643,Kasama,ZM,-10.2129,31.1808,80.31,19,0,7.92,clear sky
644,Dakoro,NE,14.5106,6.765,92.21,43,32,15.64,scattered clouds
645,Myaundzha,RU,63.0494,147.1858,49.37,78,0,3.67,clear sky
646,Winton,US,37.3894,-120.6133,76.28,77,1,5.75,clear sky
647,Storforshei,NO,66.4043,14.5233,67.78,52,75,13.8,light rain
648,Safita,SY,34.8205,36.1153,85.51,60,0,20.8,clear sky
649,Chipata,ZM,-13.6333,32.65,80.35,24,0,6.55,clear sky
650,Xifeng,CN,42.7372,124.7222,69.85,79,0,4.7,clear sky
651,Knysna,ZA,-34.0363,23.0471,70.18,48,96,8.5,overcast clouds
652,Chipinge,ZW,-20.1883,32.6236,75.7,23,0,8.1,clear sky
653,Grand-Santi,GF,4.25,-54.3833,82.02,72,41,3.49,scattered clouds
